[
  {"name": "Frankfurt am Main", "stateCode": "HE", "state": "Hessen", "county": "Frankfurt am Main", "metro": "Frankfurt Rhein-Main", "population": 753056, "geo": {"lat": 50.1109, "lon": 8.6821, "tz": "Europe/Berlin"}},
  {"name": "Wiesbaden", "stateCode": "HE", "state": "Hessen", "county": "Wiesbaden", "metro": "Frankfurt Rhein-Main", "population": 278474, "geo": {"lat": 50.0782, "lon": 8.2398, "tz": "Europe/Berlin"}},
  {"name": "Kassel", "stateCode": "HE", "state": "Hessen", "county": "Kassel", "metro": "Kassel", "population": 201585, "geo": {"lat": 51.3127, "lon": 9.4797, "tz": "Europe/Berlin"}},
  {"name": "Darmstadt", "stateCode": "HE", "state": "Hessen", "county": "Darmstadt", "metro": "Frankfurt Rhein-Main", "population": 159207, "geo": {"lat": 49.8728, "lon": 8.6512, "tz": "Europe/Berlin"}},
  {"name": "Offenbach am Main", "stateCode": "HE", "state": "Hessen", "county": "Offenbach am Main", "metro": "Frankfurt Rhein-Main", "population": 130280, "geo": {"lat": 50.0956, "lon": 8.7761, "tz": "Europe/Berlin"}},
  {"name": "Gießen", "stateCode": "HE", "state": "Hessen", "county": "Gießen", "metro": "Gießen", "population": 90126, "geo": {"lat": 50.5840, "lon": 8.6784, "tz": "Europe/Berlin"}},
  {"name": "Marburg", "stateCode": "HE", "state": "Hessen", "county": "Marburg-Biedenkopf", "metro": "Marburg", "population": 76952, "geo": {"lat": 50.8095, "lon": 8.7706, "tz": "Europe/Berlin"}},
  {"name": "Fulda", "stateCode": "HE", "state": "Hessen", "county": "Fulda", "metro": "Fulda", "population": 68635, "geo": {"lat": 50.5528, "lon": 9.6758, "tz": "Europe/Berlin"}},
  {"name": "Rüsselsheim am Main", "stateCode": "HE", "state": "Hessen", "county": "Groß-Gerau", "metro": "Frankfurt Rhein-Main", "population": 65403, "geo": {"lat": 49.9953, "lon": 8.4222, "tz": "Europe/Berlin"}},
  {"name": "Hanau", "stateCode": "HE", "state": "Hessen", "county": "Main-Kinzig-Kreis", "metro": "Frankfurt Rhein-Main", "population": 101364, "geo": {"lat": 50.1326, "lon": 8.9169, "tz": "Europe/Berlin"}},
  {"name": "Bad Homburg", "stateCode": "HE", "state": "Hessen", "county": "Hochtaunuskreis", "metro": "Frankfurt Rhein-Main", "population": 54759, "geo": {"lat": 50.2269, "lon": 8.6186, "tz": "Europe/Berlin"}},
  {"name": "Oberursel", "stateCode": "HE", "state": "Hessen", "county": "Hochtaunuskreis", "metro": "Frankfurt Rhein-Main", "population": 46658, "geo": {"lat": 50.1989, "lon": 8.5772, "tz": "Europe/Berlin"}},
  {"name": "Rodgau", "stateCode": "HE", "state": "Hessen", "county": "Offenbach", "metro": "Frankfurt Rhein-Main", "population": 45910, "geo": {"lat": 50.0167, "lon": 8.8833, "tz": "Europe/Berlin"}},
  {"name": "Bensheim", "stateCode": "HE", "state": "Hessen", "county": "Bergstraße", "metro": "Rhein-Neckar", "population": 42168, "geo": {"lat": 49.6814, "lon": 8.6192, "tz": "Europe/Berlin"}},
  {"name": "Dreieich", "stateCode": "HE", "state": "Hessen", "county": "Offenbach", "metro": "Frankfurt Rhein-Main", "population": 42941, "geo": {"lat": 50.0000, "lon": 8.7000, "tz": "Europe/Berlin"}},
  {"name": "Hofheim am Taunus", "stateCode": "HE", "state": "Hessen", "county": "Main-Taunus-Kreis", "metro": "Frankfurt Rhein-Main", "population": 40106, "geo": {"lat": 50.0861, "lon": 8.4475, "tz": "Europe/Berlin"}},
  {"name": "Langen", "stateCode": "HE", "state": "Hessen", "county": "Offenbach", "metro": "Frankfurt Rhein-Main", "population": 39093, "geo": {"lat": 49.9917, "lon": 8.6778, "tz": "Europe/Berlin"}},
  {"name": "Neu-Isenburg", "stateCode": "HE", "state": "Hessen", "county": "Offenbach", "metro": "Frankfurt Rhein-Main", "population": 38105, "geo": {"lat": 50.0500, "lon": 8.7000, "tz": "Europe/Berlin"}},
  {"name": "Dietzenbach", "stateCode": "HE", "state": "Hessen", "county": "Offenbach", "metro": "Frankfurt Rhein-Main", "population": 35115, "geo": {"lat": 50.0094, "lon": 8.7778, "tz": "Europe/Berlin"}},
  {"name": "Viernheim", "stateCode": "HE", "state": "Hessen", "county": "Bergstraße", "metro": "Rhein-Neckar", "population": 34589, "geo": {"lat": 49.5406, "lon": 8.5789, "tz": "Europe/Berlin"}},
  {"name": "Limburg an der Lahn", "stateCode": "HE", "state": "Hessen", "county": "Limburg-Weilburg", "metro": "Limburg", "population": 35791, "geo": {"lat": 50.3875, "lon": 8.0658, "tz": "Europe/Berlin"}},
  {"name": "Bad Vilbel", "stateCode": "HE", "state": "Hessen", "county": "Wetteraukreis", "metro": "Frankfurt Rhein-Main", "population": 35277, "geo": {"lat": 50.1814, "lon": 8.7397, "tz": "Europe/Berlin"}},
  {"name": "Friedberg", "stateCode": "HE", "state": "Hessen", "county": "Wetteraukreis", "metro": "Frankfurt Rhein-Main", "population": 30315, "geo": {"lat": 50.3344, "lon": 8.7556, "tz": "Europe/Berlin"}},
  {"name": "Kronberg im Taunus", "stateCode": "HE", "state": "Hessen", "county": "Hochtaunuskreis", "metro": "Frankfurt Rhein-Main", "population": 18277, "geo": {"lat": 50.1817, "lon": 8.5175, "tz": "Europe/Berlin"}}
]
