[
  {"name": "Wilmington", "stateCode": "DE", "state": "Delaware", "county": "New Castle", "metro": "Philadelphia-Camden-Wilmington", "population": 70898, "geo": {"lat": 39.7391, "lon": -75.5398, "tz": "America/New_York"}},
  {"name": "Dover", "stateCode": "DE", "state": "Delaware", "county": "Kent", "metro": "Dover", "population": 39403, "geo": {"lat": 39.1582, "lon": -75.5244, "tz": "America/New_York"}},
  {"name": "Newark", "stateCode": "DE", "state": "Delaware", "county": "New Castle", "metro": "Philadelphia-Camden-Wilmington", "population": 33673, "geo": {"lat": 39.6837, "lon": -75.7497, "tz": "America/New_York"}},
  {"name": "Middletown", "stateCode": "DE", "state": "Delaware", "county": "New Castle", "metro": "Philadelphia-Camden-Wilmington", "population": 22350, "geo": {"lat": 39.4496, "lon": -75.7163, "tz": "America/New_York"}},
  {"name": "Bear", "stateCode": "DE", "state": "Delaware", "county": "New Castle", "metro": "Philadelphia-Camden-Wilmington", "population": 21017, "geo": {"lat": 39.6290, "lon": -75.6541, "tz": "America/New_York"}},
  {"name": "Glasgow", "stateCode": "DE", "state": "Delaware", "county": "New Castle", "metro": "Philadelphia-Camden-Wilmington", "population": 15538, "geo": {"lat": 39.6048, "lon": -75.7455, "tz": "America/New_York"}},
  {"name": "Brookside", "stateCode": "DE", "state": "Delaware", "county": "New Castle", "metro": "Philadelphia-Camden-Wilmington", "population": 14353, "geo": {"lat": 39.6670, "lon": -75.7227, "tz": "America/New_York"}},
  {"name": "Hockessin", "stateCode": "DE", "state": "Delaware", "county": "New Castle", "metro": "Philadelphia-Camden-Wilmington", "population": 13527, "geo": {"lat": 39.7876, "lon": -75.6966, "tz": "America/New_York"}},
  {"name": "Smyrna", "stateCode": "DE", "state": "Delaware", "county": "Kent", "metro": "Dover", "population": 12883, "geo": {"lat": 39.2998, "lon": -75.6047, "tz": "America/New_York"}},
  {"name": "Milford", "stateCode": "DE", "state": "Delaware", "county": "Kent", "metro": "Dover", "population": 11732, "geo": {"lat": 38.9126, "lon": -75.4280, "tz": "America/New_York"}},
  {"name": "Seaford", "stateCode": "DE", "state": "Delaware", "county": "Sussex", "metro": "Seaford", "population": 8369, "geo": {"lat": 38.6412, "lon": -75.6110, "tz": "America/New_York"}},
  {"name": "Georgetown", "stateCode": "DE", "state": "Delaware", "county": "Sussex", "metro": "Georgetown", "population": 7436, "geo": {"lat": 38.6901, "lon": -75.3855, "tz": "America/New_York"}},
  {"name": "Elsmere", "stateCode": "DE", "state": "Delaware", "county": "New Castle", "metro": "Philadelphia-Camden-Wilmington", "population": 5814, "geo": {"lat": 39.7393, "lon": -75.5977, "tz": "America/New_York"}},
  {"name": "New Castle", "stateCode": "DE", "state": "Delaware", "county": "New Castle", "metro": "Philadelphia-Camden-Wilmington", "population": 5285, "geo": {"lat": 39.6621, "lon": -75.5663, "tz": "America/New_York"}},
  {"name": "Lewes", "stateCode": "DE", "state": "Delaware", "county": "Sussex", "metro": "Lewes", "population": 3266, "geo": {"lat": 38.7746, "lon": -75.1393, "tz": "America/New_York"}},
  {"name": "Rehoboth Beach", "stateCode": "DE", "state": "Delaware", "county": "Sussex", "metro": "Rehoboth Beach", "population": 1588, "geo": {"lat": 38.7209, "lon": -75.0760, "tz": "America/New_York"}},
  {"name": "Laurel", "stateCode": "DE", "state": "Delaware", "county": "Sussex", "metro": "Seaford", "population": 4314, "geo": {"lat": 38.5565, "lon": -75.5713, "tz": "America/New_York"}},
  {"name": "Harrington", "stateCode": "DE", "state": "Delaware", "county": "Kent", "metro": "Dover", "population": 3708, "geo": {"lat": 38.9237, "lon": -75.5777, "tz": "America/New_York"}},
  {"name": "Camden", "stateCode": "DE", "state": "Delaware", "county": "Kent", "metro": "Dover", "population": 3529, "geo": {"lat": 39.1134, "lon": -75.5416, "tz": "America/New_York"}},
  {"name": "Clayton", "stateCode": "DE", "state": "Delaware", "county": "Kent", "metro": "Dover", "population": 3454, "geo": {"lat": 39.2904, "lon": -75.6344, "tz": "America/New_York"}},
  {"name": "Bridgeville", "stateCode": "DE", "state": "Delaware", "county": "Sussex", "metro": "Seaford", "population": 3508, "geo": {"lat": 38.7426, "lon": -75.6044, "tz": "America/New_York"}},
  {"name": "Selbyville", "stateCode": "DE", "state": "Delaware", "county": "Sussex", "metro": "Selbyville", "population": 2520, "geo": {"lat": 38.4604, "lon": -75.2202, "tz": "America/New_York"}},
  {"name": "Townsend", "stateCode": "DE", "state": "Delaware", "county": "New Castle", "metro": "Philadelphia-Camden-Wilmington", "population": 2540, "geo": {"lat": 39.3954, "lon": -75.6916, "tz": "America/New_York"}},
  {"name": "Ocean View", "stateCode": "DE", "state": "Delaware", "county": "Sussex", "metro": "Ocean View", "population": 2637, "geo": {"lat": 38.5451, "lon": -75.0891, "tz": "America/New_York"}},
  {"name": "Millsboro", "stateCode": "DE", "state": "Delaware", "county": "Sussex", "metro": "Millsboro", "population": 4448, "geo": {"lat": 38.5915, "lon": -75.2916, "tz": "America/New_York"}},
  {"name": "Milton", "stateCode": "DE", "state": "Delaware", "county": "Sussex", "metro": "Lewes", "population": 3338, "geo": {"lat": 38.7776, "lon": -75.3099, "tz": "America/New_York"}},
  {"name": "Long Neck", "stateCode": "DE", "state": "Delaware", "county": "Sussex", "metro": "Rehoboth Beach", "population": 2758, "geo": {"lat": 38.6121, "lon": -75.1513, "tz": "America/New_York"}},
  {"name": "Bethany Beach", "stateCode": "DE", "state": "Delaware", "county": "Sussex", "metro": "Bethany Beach", "population": 1090, "geo": {"lat": 38.5393, "lon": -75.0552, "tz": "America/New_York"}},
  {"name": "Dewey Beach", "stateCode": "DE", "state": "Delaware", "county": "Sussex", "metro": "Rehoboth Beach", "population": 341, "geo": {"lat": 38.6893, "lon": -75.0774, "tz": "America/New_York"}},
  {"name": "Fenwick Island", "stateCode": "DE", "state": "Delaware", "county": "Sussex", "metro": "Fenwick Island", "population": 342, "geo": {"lat": 38.4651, "lon": -75.0541, "tz": "America/New_York"}}
]
