[
  {"name": "Portland", "stateCode": "ME", "state": "Maine", "county": "Cumberland", "metro": "Portland-South Portland", "population": 68408, "geo": {"lat": 43.6591, "lon": -70.2568, "tz": "America/New_York"}},
  {"name": "Lewiston", "stateCode": "ME", "state": "Maine", "county": "Androscoggin", "metro": "Lewiston-Auburn", "population": 36592, "geo": {"lat": 44.1004, "lon": -70.2148, "tz": "America/New_York"}},
  {"name": "Bangor", "stateCode": "ME", "state": "Maine", "county": "Penobscot", "metro": "Bangor", "population": 32029, "geo": {"lat": 44.8016, "lon": -68.7712, "tz": "America/New_York"}},
  {"name": "South Portland", "stateCode": "ME", "state": "Maine", "county": "Cumberland", "metro": "Portland-South Portland", "population": 25665, "geo": {"lat": 43.6415, "lon": -70.2409, "tz": "America/New_York"}},
  {"name": "Auburn", "stateCode": "ME", "state": "Maine", "county": "Androscoggin", "metro": "Lewiston-Auburn", "population": 23922, "geo": {"lat": 44.0979, "lon": -70.2312, "tz": "America/New_York"}},
  {"name": "Biddeford", "stateCode": "ME", "state": "Maine", "county": "York", "metro": "Portland-South Portland", "population": 21488, "geo": {"lat": 43.4926, "lon": -70.4534, "tz": "America/New_York"}},
  {"name": "Sanford", "stateCode": "ME", "state": "Maine", "county": "York", "metro": "Portland-South Portland", "population": 21906, "geo": {"lat": 43.4393, "lon": -70.7742, "tz": "America/New_York"}},
  {"name": "Augusta", "stateCode": "ME", "state": "Maine", "county": "Kennebec", "metro": "Augusta", "population": 18899, "geo": {"lat": 44.3106, "lon": -69.7795, "tz": "America/New_York"}},
  {"name": "Saco", "stateCode": "ME", "state": "Maine", "county": "York", "metro": "Portland-South Portland", "population": 19858, "geo": {"lat": 43.5009, "lon": -70.4428, "tz": "America/New_York"}},
  {"name": "Westbrook", "stateCode": "ME", "state": "Maine", "county": "Cumberland", "metro": "Portland-South Portland", "population": 18935, "geo": {"lat": 43.6770, "lon": -70.3712, "tz": "America/New_York"}},
  {"name": "Waterville", "stateCode": "ME", "state": "Maine", "county": "Kennebec", "metro": "Waterville", "population": 16623, "geo": {"lat": 44.5520, "lon": -69.6317, "tz": "America/New_York"}},
  {"name": "Brunswick", "stateCode": "ME", "state": "Maine", "county": "Cumberland", "metro": "Portland-South Portland", "population": 20278, "geo": {"lat": 43.9145, "lon": -69.9653, "tz": "America/New_York"}},
  {"name": "Scarborough", "stateCode": "ME", "state": "Maine", "county": "Cumberland", "metro": "Portland-South Portland", "population": 20352, "geo": {"lat": 43.5781, "lon": -70.3217, "tz": "America/New_York"}},
  {"name": "Gorham", "stateCode": "ME", "state": "Maine", "county": "Cumberland", "metro": "Portland-South Portland", "population": 18106, "geo": {"lat": 43.6795, "lon": -70.4442, "tz": "America/New_York"}},
  {"name": "Windham", "stateCode": "ME", "state": "Maine", "county": "Cumberland", "metro": "Portland-South Portland", "population": 18041, "geo": {"lat": 43.7998, "lon": -70.4059, "tz": "America/New_York"}},
  {"name": "Presque Isle", "stateCode": "ME", "state": "Maine", "county": "Aroostook", "metro": "Presque Isle", "population": 8932, "geo": {"lat": 46.6812, "lon": -68.0159, "tz": "America/New_York"}},
  {"name": "Bath", "stateCode": "ME", "state": "Maine", "county": "Sagadahoc", "metro": "Portland-South Portland", "population": 8529, "geo": {"lat": 43.9106, "lon": -69.8206, "tz": "America/New_York"}},
  {"name": "Ellsworth", "stateCode": "ME", "state": "Maine", "county": "Hancock", "metro": "Ellsworth", "population": 8399, "geo": {"lat": 44.5434, "lon": -68.4195, "tz": "America/New_York"}},
  {"name": "Gardiner", "stateCode": "ME", "state": "Maine", "county": "Kennebec", "metro": "Augusta", "population": 5670, "geo": {"lat": 44.2298, "lon": -69.7795, "tz": "America/New_York"}},
  {"name": "Rockland", "stateCode": "ME", "state": "Maine", "county": "Knox", "metro": "Rockland", "population": 7297, "geo": {"lat": 44.1037, "lon": -69.1089, "tz": "America/New_York"}},
  {"name": "Caribou", "stateCode": "ME", "state": "Maine", "county": "Aroostook", "metro": "Caribou-Presque Isle", "population": 7636, "geo": {"lat": 46.8606, "lon": -68.0120, "tz": "America/New_York"}},
  {"name": "Brewer", "stateCode": "ME", "state": "Maine", "county": "Penobscot", "metro": "Bangor", "population": 9127, "geo": {"lat": 44.7965, "lon": -68.7614, "tz": "America/New_York"}},
  {"name": "Old Town", "stateCode": "ME", "state": "Maine", "county": "Penobscot", "metro": "Bangor", "population": 7483, "geo": {"lat": 44.9343, "lon": -68.6453, "tz": "America/New_York"}},
  {"name": "Kennebunk", "stateCode": "ME", "state": "Maine", "county": "York", "metro": "Portland-South Portland", "population": 11822, "geo": {"lat": 43.3859, "lon": -70.5445, "tz": "America/New_York"}},
  {"name": "Falmouth", "stateCode": "ME", "state": "Maine", "county": "Cumberland", "metro": "Portland-South Portland", "population": 12319, "geo": {"lat": 43.7298, "lon": -70.2387, "tz": "America/New_York"}},
  {"name": "York", "stateCode": "ME", "state": "Maine", "county": "York", "metro": "Portland-South Portland", "population": 13723, "geo": {"lat": 43.1615, "lon": -70.6484, "tz": "America/New_York"}},
  {"name": "Kittery", "stateCode": "ME", "state": "Maine", "county": "York", "metro": "Portland-South Portland", "population": 9707, "geo": {"lat": 43.0884, "lon": -70.7367, "tz": "America/New_York"}},
  {"name": "Belfast", "stateCode": "ME", "state": "Maine", "county": "Waldo", "metro": "Belfast", "population": 6938, "geo": {"lat": 44.4259, "lon": -69.0064, "tz": "America/New_York"}},
  {"name": "Hampden", "stateCode": "ME", "state": "Maine", "county": "Penobscot", "metro": "Bangor", "population": 7508, "geo": {"lat": 44.7445, "lon": -68.8367, "tz": "America/New_York"}},
  {"name": "Topsham", "stateCode": "ME", "state": "Maine", "county": "Sagadahoc", "metro": "Portland-South Portland", "population": 8990, "geo": {"lat": 43.9276, "lon": -69.9703, "tz": "America/New_York"}},
  {"name": "Freeport", "stateCode": "ME", "state": "Maine", "county": "Cumberland", "metro": "Portland-South Portland", "population": 8639, "geo": {"lat": 43.8570, "lon": -70.1031, "tz": "America/New_York"}},
  {"name": "Yarmouth", "stateCode": "ME", "state": "Maine", "county": "Cumberland", "metro": "Portland-South Portland", "population": 8777, "geo": {"lat": 43.8006, "lon": -70.1867, "tz": "America/New_York"}},
  {"name": "Cape Elizabeth", "stateCode": "ME", "state": "Maine", "county": "Cumberland", "metro": "Portland-South Portland", "population": 9405, "geo": {"lat": 43.5640, "lon": -70.2001, "tz": "America/New_York"}},
  {"name": "Cumberland", "stateCode": "ME", "state": "Maine", "county": "Cumberland", "metro": "Portland-South Portland", "population": 8482, "geo": {"lat": 43.7962, "lon": -70.2570, "tz": "America/New_York"}},
  {"name": "Lisbon", "stateCode": "ME", "state": "Maine", "county": "Androscoggin", "metro": "Lewiston-Auburn", "population": 9009, "geo": {"lat": 44.0315, "lon": -70.1034, "tz": "America/New_York"}},
  {"name": "Buxton", "stateCode": "ME", "state": "Maine", "county": "York", "metro": "Portland-South Portland", "population": 8541, "geo": {"lat": 43.6315, "lon": -70.5256, "tz": "America/New_York"}},
  {"name": "Old Orchard Beach", "stateCode": "ME", "state": "Maine", "county": "York", "metro": "Portland-South Portland", "population": 8856, "geo": {"lat": 43.5176, "lon": -70.3778, "tz": "America/New_York"}},
  {"name": "Standish", "stateCode": "ME", "state": "Maine", "county": "Cumberland", "metro": "Portland-South Portland", "population": 11293, "geo": {"lat": 43.7559, "lon": -70.5545, "tz": "America/New_York"}},
  {"name": "Wells", "stateCode": "ME", "state": "Maine", "county": "York", "metro": "Portland-South Portland", "population": 10964, "geo": {"lat": 43.3223, "lon": -70.5803, "tz": "America/New_York"}},
  {"name": "Winslow", "stateCode": "ME", "state": "Maine", "county": "Kennebec", "metro": "Waterville", "population": 7664, "geo": {"lat": 44.5473, "lon": -69.5817, "tz": "America/New_York"}},
  {"name": "Farmington", "stateCode": "ME", "state": "Maine", "county": "Franklin", "metro": "Farmington", "population": 7592, "geo": {"lat": 44.6701, "lon": -70.1517, "tz": "America/New_York"}},
  {"name": "Camden", "stateCode": "ME", "state": "Maine", "county": "Knox", "metro": "Rockland", "population": 5232, "geo": {"lat": 44.2098, "lon": -69.0645, "tz": "America/New_York"}},
  {"name": "Orono", "stateCode": "ME", "state": "Maine", "county": "Penobscot", "metro": "Bangor", "population": 11240, "geo": {"lat": 44.8834, "lon": -68.6717, "tz": "America/New_York"}},
  {"name": "Bar Harbor", "stateCode": "ME", "state": "Maine", "county": "Hancock", "metro": "Bar Harbor", "population": 5089, "geo": {"lat": 44.3876, "lon": -68.2039, "tz": "America/New_York"}},
  {"name": "Houlton", "stateCode": "ME", "state": "Maine", "county": "Aroostook", "metro": "Houlton", "population": 5931, "geo": {"lat": 46.1262, "lon": -67.8403, "tz": "America/New_York"}},
  {"name": "Rumford", "stateCode": "ME", "state": "Maine", "county": "Oxford", "metro": "Rumford", "population": 5841, "geo": {"lat": 44.5537, "lon": -70.5517, "tz": "America/New_York"}},
  {"name": "Skowhegan", "stateCode": "ME", "state": "Maine", "county": "Somerset", "metro": "Skowhegan", "population": 8232, "geo": {"lat": 44.7651, "lon": -69.7195, "tz": "America/New_York"}},
  {"name": "Norway", "stateCode": "ME", "state": "Maine", "county": "Oxford", "metro": "Norway-Paris", "population": 5014, "geo": {"lat": 44.2137, "lon": -70.5445, "tz": "America/New_York"}},
  {"name": "Boothbay Harbor", "stateCode": "ME", "state": "Maine", "county": "Lincoln", "metro": "Boothbay Harbor", "population": 2105, "geo": {"lat": 43.8526, "lon": -69.6278, "tz": "America/New_York"}},
  {"name": "Ogunquit", "stateCode": "ME", "state": "Maine", "county": "York", "metro": "Portland-South Portland", "population": 1326, "geo": {"lat": 43.2487, "lon": -70.5945, "tz": "America/New_York"}},
  {"name": "Kennebunkport", "stateCode": "ME", "state": "Maine", "county": "York", "metro": "Portland-South Portland", "population": 3474, "geo": {"lat": 43.3615, "lon": -70.4767, "tz": "America/New_York"}},
  {"name": "Millinocket", "stateCode": "ME", "state": "Maine", "county": "Penobscot", "metro": "Millinocket", "population": 4506, "geo": {"lat": 45.6573, "lon": -68.7098, "tz": "America/New_York"}},
  {"name": "Dover-Foxcroft", "stateCode": "ME", "state": "Maine", "county": "Piscataquis", "metro": "Dover-Foxcroft", "population": 4274, "geo": {"lat": 45.1837, "lon": -69.2270, "tz": "America/New_York"}},
  {"name": "Lincoln", "stateCode": "ME", "state": "Maine", "county": "Penobscot", "metro": "Lincoln", "population": 5085, "geo": {"lat": 45.3612, "lon": -68.5053, "tz": "America/New_York"}},
  {"name": "Dexter", "stateCode": "ME", "state": "Maine", "county": "Penobscot", "metro": "Dexter", "population": 3890, "geo": {"lat": 45.0237, "lon": -69.2895, "tz": "America/New_York"}},
  {"name": "Calais", "stateCode": "ME", "state": "Maine", "county": "Washington", "metro": "Calais", "population": 3053, "geo": {"lat": 45.1837, "lon": -67.2778, "tz": "America/New_York"}},
  {"name": "Machias", "stateCode": "ME", "state": "Maine", "county": "Washington", "metro": "Machias", "population": 2085, "geo": {"lat": 44.7151, "lon": -67.4611, "tz": "America/New_York"}},
  {"name": "Fort Kent", "stateCode": "ME", "state": "Maine", "county": "Aroostook", "metro": "Fort Kent", "population": 4084, "geo": {"lat": 47.2584, "lon": -68.5892, "tz": "America/New_York"}},
  {"name": "Madawaska", "stateCode": "ME", "state": "Maine", "county": "Aroostook", "metro": "Madawaska", "population": 3699, "geo": {"lat": 47.3551, "lon": -68.3323, "tz": "America/New_York"}},
  {"name": "Van Buren", "stateCode": "ME", "state": "Maine", "county": "Aroostook", "metro": "Van Buren", "population": 2037, "geo": {"lat": 47.1570, "lon": -67.9353, "tz": "America/New_York"}},
  {"name": "Rangeley", "stateCode": "ME", "state": "Maine", "county": "Franklin", "metro": "Rangeley", "population": 1168, "geo": {"lat": 44.9662, "lon": -70.6487, "tz": "America/New_York"}},
  {"name": "Bethel", "stateCode": "ME", "state": "Maine", "county": "Oxford", "metro": "Bethel", "population": 2607, "geo": {"lat": 44.4040, "lon": -70.7906, "tz": "America/New_York"}},
  {"name": "Greenville", "stateCode": "ME", "state": "Maine", "county": "Piscataquis", "metro": "Greenville", "population": 1610, "geo": {"lat": 45.4598, "lon": -69.5903, "tz": "America/New_York"}}
]
