[
  {"name": "Minneapolis", "stateCode": "MN", "state": "Minnesota", "county": "Hennepin County", "metro": "Minneapolis-St. Paul-Bloomington", "population": 429954, "geo": {"lat": 44.9778, "lon": -93.2650, "tz": "America/Chicago"}},
  {"name": "St. Paul", "stateCode": "MN", "state": "Minnesota", "county": "Ramsey County", "metro": "Minneapolis-St. Paul-Bloomington", "population": 311527, "geo": {"lat": 44.9537, "lon": -93.0900, "tz": "America/Chicago"}},
  {"name": "Rochester", "stateCode": "MN", "state": "Minnesota", "county": "Olmsted County", "metro": "Rochester", "population": 121395, "geo": {"lat": 44.0121, "lon": -92.4802, "tz": "America/Chicago"}},
  {"name": "Bloomington", "stateCode": "MN", "state": "Minnesota", "county": "Hennepin County", "metro": "Minneapolis-St. Paul-Bloomington", "population": 89987, "geo": {"lat": 44.8408, "lon": -93.2983, "tz": "America/Chicago"}},
  {"name": "Duluth", "stateCode": "MN", "state": "Minnesota", "county": "St. Louis County", "metro": "Duluth", "population": 90884, "geo": {"lat": 46.7867, "lon": -92.1005, "tz": "America/Chicago"}},
  {"name": "Brooklyn Park", "stateCode": "MN", "state": "Minnesota", "county": "Hennepin County", "metro": "Minneapolis-St. Paul-Bloomington", "population": 86478, "geo": {"lat": 45.0941, "lon": -93.3563, "tz": "America/Chicago"}},
  {"name": "Plymouth", "stateCode": "MN", "state": "Minnesota", "county": "Hennepin County", "metro": "Minneapolis-St. Paul-Bloomington", "population": 81026, "geo": {"lat": 45.0105, "lon": -93.4555, "tz": "America/Chicago"}},
  {"name": "Maple Grove", "stateCode": "MN", "state": "Minnesota", "county": "Hennepin County", "metro": "Minneapolis-St. Paul-Bloomington", "population": 76653, "geo": {"lat": 45.0724, "lon": -93.4558, "tz": "America/Chicago"}},
  {"name": "Woodbury", "stateCode": "MN", "state": "Minnesota", "county": "Washington County", "metro": "Minneapolis-St. Paul-Bloomington", "population": 75102, "geo": {"lat": 44.9239, "lon": -92.9594, "tz": "America/Chicago"}},
  {"name": "St. Cloud", "stateCode": "MN", "state": "Minnesota", "county": "Stearns County", "metro": "St. Cloud", "population": 68881, "geo": {"lat": 45.5579, "lon": -94.1636, "tz": "America/Chicago"}},
  {"name": "Eagan", "stateCode": "MN", "state": "Minnesota", "county": "Dakota County", "metro": "Minneapolis-St. Paul-Bloomington", "population": 68855, "geo": {"lat": 44.8041, "lon": -93.1669, "tz": "America/Chicago"}},
  {"name": "Eden Prairie", "stateCode": "MN", "state": "Minnesota", "county": "Hennepin County", "metro": "Minneapolis-St. Paul-Bloomington", "population": 64198, "geo": {"lat": 44.8547, "lon": -93.4708, "tz": "America/Chicago"}},
  {"name": "Coon Rapids", "stateCode": "MN", "state": "Minnesota", "county": "Anoka County", "metro": "Minneapolis-St. Paul-Bloomington", "population": 63364, "geo": {"lat": 45.1200, "lon": -93.2878, "tz": "America/Chicago"}},
  {"name": "Burnsville", "stateCode": "MN", "state": "Minnesota", "county": "Dakota County", "metro": "Minneapolis-St. Paul-Bloomington", "population": 64317, "geo": {"lat": 44.7677, "lon": -93.2777, "tz": "America/Chicago"}},
  {"name": "Blaine", "stateCode": "MN", "state": "Minnesota", "county": "Anoka County", "metro": "Minneapolis-St. Paul-Bloomington", "population": 70222, "geo": {"lat": 45.1608, "lon": -93.2349, "tz": "America/Chicago"}},
  {"name": "Lakeville", "stateCode": "MN", "state": "Minnesota", "county": "Dakota County", "metro": "Minneapolis-St. Paul-Bloomington", "population": 70226, "geo": {"lat": 44.6497, "lon": -93.2428, "tz": "America/Chicago"}},
  {"name": "Minnetonka", "stateCode": "MN", "state": "Minnesota", "county": "Hennepin County", "metro": "Minneapolis-St. Paul-Bloomington", "population": 53781, "geo": {"lat": 44.9211, "lon": -93.4687, "tz": "America/Chicago"}},
  {"name": "Apple Valley", "stateCode": "MN", "state": "Minnesota", "county": "Dakota County", "metro": "Minneapolis-St. Paul-Bloomington", "population": 55135, "geo": {"lat": 44.7319, "lon": -93.2177, "tz": "America/Chicago"}},
  {"name": "Edina", "stateCode": "MN", "state": "Minnesota", "county": "Hennepin County", "metro": "Minneapolis-St. Paul-Bloomington", "population": 53494, "geo": {"lat": 44.8897, "lon": -93.3499, "tz": "America/Chicago"}},
  {"name": "St. Louis Park", "stateCode": "MN", "state": "Minnesota", "county": "Hennepin County", "metro": "Minneapolis-St. Paul-Bloomington", "population": 49987, "geo": {"lat": 44.9597, "lon": -93.3702, "tz": "America/Chicago"}},
  {"name": "Mankato", "stateCode": "MN", "state": "Minnesota", "county": "Blue Earth County", "metro": "Mankato", "population": 44488, "geo": {"lat": 44.1636, "lon": -93.9994, "tz": "America/Chicago"}},
  {"name": "Moorhead", "stateCode": "MN", "state": "Minnesota", "county": "Clay County", "metro": "Fargo-Moorhead", "population": 44505, "geo": {"lat": 46.8739, "lon": -96.7678, "tz": "America/Chicago"}},
  {"name": "Shakopee", "stateCode": "MN", "state": "Minnesota", "county": "Scott County", "metro": "Minneapolis-St. Paul-Bloomington", "population": 44013, "geo": {"lat": 44.7974, "lon": -93.5272, "tz": "America/Chicago"}},
  {"name": "Richfield", "stateCode": "MN", "state": "Minnesota", "county": "Hennepin County", "metro": "Minneapolis-St. Paul-Bloomington", "population": 36994, "geo": {"lat": 44.8831, "lon": -93.2827, "tz": "America/Chicago"}},
  {"name": "Cottage Grove", "stateCode": "MN", "state": "Minnesota", "county": "Washington County", "metro": "Minneapolis-St. Paul-Bloomington", "population": 38018, "geo": {"lat": 44.8277, "lon": -92.9438, "tz": "America/Chicago"}},
  {"name": "Roseville", "stateCode": "MN", "state": "Minnesota", "county": "Ramsey County", "metro": "Minneapolis-St. Paul-Bloomington", "population": 36800, "geo": {"lat": 45.0061, "lon": -93.1566, "tz": "America/Chicago"}},
  {"name": "Inver Grove Heights", "stateCode": "MN", "state": "Minnesota", "county": "Dakota County", "metro": "Minneapolis-St. Paul-Bloomington", "population": 37880, "geo": {"lat": 44.8483, "lon": -93.0422, "tz": "America/Chicago"}},
  {"name": "Andover", "stateCode": "MN", "state": "Minnesota", "county": "Anoka County", "metro": "Minneapolis-St. Paul-Bloomington", "population": 36739, "geo": {"lat": 45.2333, "lon": -93.2916, "tz": "America/Chicago"}},
  {"name": "Winona", "stateCode": "MN", "state": "Minnesota", "county": "Winona County", "metro": "Winona", "population": 25948, "geo": {"lat": 44.0499, "lon": -91.6393, "tz": "America/Chicago"}}
]
