[
  {"name": "Columbus", "stateCode": "OH", "state": "Ohio", "county": "Franklin County", "metro": "Columbus", "population": 905748, "geo": {"lat": 39.9612, "lon": -82.9988, "tz": "America/New_York"}},
  {"name": "Cleveland", "stateCode": "OH", "state": "Ohio", "county": "Cuyahoga County", "metro": "Cleveland-Elyria", "population": 372624, "geo": {"lat": 41.4993, "lon": -81.6944, "tz": "America/New_York"}},
  {"name": "Cincinnati", "stateCode": "OH", "state": "Ohio", "county": "Hamilton County", "metro": "Cincinnati", "population": 309317, "geo": {"lat": 39.1031, "lon": -84.5120, "tz": "America/New_York"}},
  {"name": "Toledo", "stateCode": "OH", "state": "Ohio", "county": "Lucas County", "metro": "Toledo", "population": 270871, "geo": {"lat": 41.6528, "lon": -83.5379, "tz": "America/New_York"}},
  {"name": "Akron", "stateCode": "OH", "state": "Ohio", "county": "Summit County", "metro": "Akron", "population": 190469, "geo": {"lat": 41.0814, "lon": -81.5190, "tz": "America/New_York"}},
  {"name": "Dayton", "stateCode": "OH", "state": "Ohio", "county": "Montgomery County", "metro": "Dayton", "population": 137644, "geo": {"lat": 39.7589, "lon": -84.1916, "tz": "America/New_York"}},
  {"name": "Parma", "stateCode": "OH", "state": "Ohio", "county": "Cuyahoga County", "metro": "Cleveland-Elyria", "population": 81145, "geo": {"lat": 41.4048, "lon": -81.7229, "tz": "America/New_York"}},
  {"name": "Canton", "stateCode": "OH", "state": "Ohio", "county": "Stark County", "metro": "Canton-Massillon", "population": 70872, "geo": {"lat": 40.7989, "lon": -81.3784, "tz": "America/New_York"}},
  {"name": "Youngstown", "stateCode": "OH", "state": "Ohio", "county": "Mahoning County", "metro": "Youngstown-Warren-Boardman", "population": 60068, "geo": {"lat": 41.0998, "lon": -80.6495, "tz": "America/New_York"}},
  {"name": "Lorain", "stateCode": "OH", "state": "Ohio", "county": "Lorain County", "metro": "Cleveland-Elyria", "population": 65211, "geo": {"lat": 41.4528, "lon": -82.1824, "tz": "America/New_York"}},
  {"name": "Hamilton", "stateCode": "OH", "state": "Ohio", "county": "Butler County", "metro": "Cincinnati", "population": 63189, "geo": {"lat": 39.3995, "lon": -84.5613, "tz": "America/New_York"}},
  {"name": "Springfield", "stateCode": "OH", "state": "Ohio", "county": "Clark County", "metro": "Springfield", "population": 58662, "geo": {"lat": 39.9242, "lon": -83.8088, "tz": "America/New_York"}},
  {"name": "Kettering", "stateCode": "OH", "state": "Ohio", "county": "Montgomery County", "metro": "Dayton", "population": 57862, "geo": {"lat": 39.6895, "lon": -84.1688, "tz": "America/New_York"}},
  {"name": "Elyria", "stateCode": "OH", "state": "Ohio", "county": "Lorain County", "metro": "Cleveland-Elyria", "population": 54086, "geo": {"lat": 41.3684, "lon": -82.1076, "tz": "America/New_York"}},
  {"name": "Lakewood", "stateCode": "OH", "state": "Ohio", "county": "Cuyahoga County", "metro": "Cleveland-Elyria", "population": 52105, "geo": {"lat": 41.4819, "lon": -81.7982, "tz": "America/New_York"}},
  {"name": "Cuyahoga Falls", "stateCode": "OH", "state": "Ohio", "county": "Summit County", "metro": "Akron", "population": 51114, "geo": {"lat": 41.1339, "lon": -81.4845, "tz": "America/New_York"}},
  {"name": "Middletown", "stateCode": "OH", "state": "Ohio", "county": "Butler County", "metro": "Cincinnati", "population": 48694, "geo": {"lat": 39.5151, "lon": -84.3983, "tz": "America/New_York"}},
  {"name": "Newark", "stateCode": "OH", "state": "Ohio", "county": "Licking County", "metro": "Columbus", "population": 50315, "geo": {"lat": 40.0581, "lon": -82.4013, "tz": "America/New_York"}},
  {"name": "Dublin", "stateCode": "OH", "state": "Ohio", "county": "Franklin County", "metro": "Columbus", "population": 49037, "geo": {"lat": 40.0992, "lon": -83.1141, "tz": "America/New_York"}},
  {"name": "Beavercreek", "stateCode": "OH", "state": "Ohio", "county": "Greene County", "metro": "Dayton", "population": 47741, "geo": {"lat": 39.7092, "lon": -84.0633, "tz": "America/New_York"}},
  {"name": "Strongsville", "stateCode": "OH", "state": "Ohio", "county": "Cuyahoga County", "metro": "Cleveland-Elyria", "population": 46482, "geo": {"lat": 41.3145, "lon": -81.8362, "tz": "America/New_York"}},
  {"name": "Fairfield", "stateCode": "OH", "state": "Ohio", "county": "Butler County", "metro": "Cincinnati", "population": 44106, "geo": {"lat": 39.3454, "lon": -84.5604, "tz": "America/New_York"}},
  {"name": "Cleveland Heights", "stateCode": "OH", "state": "Ohio", "county": "Cuyahoga County", "metro": "Cleveland-Elyria", "population": 44121, "geo": {"lat": 41.5200, "lon": -81.5562, "tz": "America/New_York"}},
  {"name": "Mansfield", "stateCode": "OH", "state": "Ohio", "county": "Richland County", "metro": "Mansfield", "population": 47463, "geo": {"lat": 40.7589, "lon": -82.5154, "tz": "America/New_York"}},
  {"name": "Mentor", "stateCode": "OH", "state": "Ohio", "county": "Lake County", "metro": "Cleveland-Elyria", "population": 46051, "geo": {"lat": 41.6661, "lon": -81.3396, "tz": "America/New_York"}},
  {"name": "Warren", "stateCode": "OH", "state": "Ohio", "county": "Trumbull County", "metro": "Youngstown-Warren-Boardman", "population": 39585, "geo": {"lat": 41.2375, "lon": -80.8184, "tz": "America/New_York"}},
  {"name": "Findlay", "stateCode": "OH", "state": "Ohio", "county": "Hancock County", "metro": "Findlay", "population": 42015, "geo": {"lat": 41.0442, "lon": -83.6499, "tz": "America/New_York"}},
  {"name": "Lima", "stateCode": "OH", "state": "Ohio", "county": "Allen County", "metro": "Lima", "population": 36005, "geo": {"lat": 40.7429, "lon": -84.1052, "tz": "America/New_York"}},
  {"name": "Lancaster", "stateCode": "OH", "state": "Ohio", "county": "Fairfield County", "metro": "Columbus", "population": 41134, "geo": {"lat": 39.7137, "lon": -82.5990, "tz": "America/New_York"}},
  {"name": "Westerville", "stateCode": "OH", "state": "Ohio", "county": "Franklin County", "metro": "Columbus", "population": 40443, "geo": {"lat": 40.1262, "lon": -82.9291, "tz": "America/New_York"}},
  {"name": "Marion", "stateCode": "OH", "state": "Ohio", "county": "Marion County", "metro": "Marion", "population": 36397, "geo": {"lat": 40.5887, "lon": -83.1285, "tz": "America/New_York"}},
  {"name": "Grove City", "stateCode": "OH", "state": "Ohio", "county": "Franklin County", "metro": "Columbus", "population": 42517, "geo": {"lat": 39.8812, "lon": -83.0930, "tz": "America/New_York"}},
  {"name": "Reynoldsburg", "stateCode": "OH", "state": "Ohio", "county": "Franklin County", "metro": "Columbus", "population": 40017, "geo": {"lat": 39.9570, "lon": -82.8121, "tz": "America/New_York"}},
  {"name": "Hilliard", "stateCode": "OH", "state": "Ohio", "county": "Franklin County", "metro": "Columbus", "population": 37023, "geo": {"lat": 40.0334, "lon": -83.1582, "tz": "America/New_York"}},
  {"name": "Upper Arlington", "stateCode": "OH", "state": "Ohio", "county": "Franklin County", "metro": "Columbus", "population": 36225, "geo": {"lat": 40.0267, "lon": -83.0624, "tz": "America/New_York"}},
  {"name": "Sandusky", "stateCode": "OH", "state": "Ohio", "county": "Erie County", "metro": "Sandusky", "population": 24651, "geo": {"lat": 41.4489, "lon": -82.7079, "tz": "America/New_York"}},
  {"name": "Athens", "stateCode": "OH", "state": "Ohio", "county": "Athens County", "metro": "Athens", "population": 24515, "geo": {"lat": 39.3292, "lon": -82.1013, "tz": "America/New_York"}},
  {"name": "Zanesville", "stateCode": "OH", "state": "Ohio", "county": "Muskingum County", "metro": "Zanesville", "population": 25487, "geo": {"lat": 39.9403, "lon": -82.0132, "tz": "America/New_York"}}
]
