[
  {"name": "Oklahoma City", "stateCode": "OK", "state": "Oklahoma", "county": "Oklahoma", "metro": "Oklahoma City", "population": 681054, "geo": {"lat": 35.4676, "lon": -97.5164, "tz": "America/Chicago"}},
  {"name": "Tulsa", "stateCode": "OK", "state": "Oklahoma", "county": "Tulsa", "metro": "Tulsa", "population": 413066, "geo": {"lat": 36.1540, "lon": -95.9928, "tz": "America/Chicago"}},
  {"name": "Norman", "stateCode": "OK", "state": "Oklahoma", "county": "Cleveland", "metro": "Oklahoma City", "population": 128026, "geo": {"lat": 35.2226, "lon": -97.4395, "tz": "America/Chicago"}},
  {"name": "Broken Arrow", "stateCode": "OK", "state": "Oklahoma", "county": "Tulsa", "metro": "Tulsa", "population": 113540, "geo": {"lat": 36.0526, "lon": -95.7908, "tz": "America/Chicago"}},
  {"name": "Edmond", "stateCode": "OK", "state": "Oklahoma", "county": "Oklahoma", "metro": "Oklahoma City", "population": 94428, "geo": {"lat": 35.6528, "lon": -97.4781, "tz": "America/Chicago"}},
  {"name": "Lawton", "stateCode": "OK", "state": "Oklahoma", "county": "Comanche", "metro": "Lawton", "population": 89015, "geo": {"lat": 34.6036, "lon": -98.3959, "tz": "America/Chicago"}},
  {"name": "Moore", "stateCode": "OK", "state": "Oklahoma", "county": "Cleveland", "metro": "Oklahoma City", "population": 62793, "geo": {"lat": 35.3395, "lon": -97.4867, "tz": "America/Chicago"}},
  {"name": "Midwest City", "stateCode": "OK", "state": "Oklahoma", "county": "Oklahoma", "metro": "Oklahoma City", "population": 57873, "geo": {"lat": 35.4495, "lon": -97.3967, "tz": "America/Chicago"}},
  {"name": "Enid", "stateCode": "OK", "state": "Oklahoma", "county": "Garfield", "metro": "Enid", "population": 52449, "geo": {"lat": 36.3956, "lon": -97.8784, "tz": "America/Chicago"}},
  {"name": "Stillwater", "stateCode": "OK", "state": "Oklahoma", "county": "Payne", "metro": "Stillwater", "population": 50317, "geo": {"lat": 36.1156, "lon": -97.0584, "tz": "America/Chicago"}},
  {"name": "Muskogee", "stateCode": "OK", "state": "Oklahoma", "county": "Muskogee", "metro": "Muskogee", "population": 36584, "geo": {"lat": 35.7479, "lon": -95.3697, "tz": "America/Chicago"}},
  {"name": "Bartlesville", "stateCode": "OK", "state": "Oklahoma", "county": "Washington", "metro": "Bartlesville", "population": 37290, "geo": {"lat": 36.7473, "lon": -95.9808, "tz": "America/Chicago"}},
  {"name": "Owasso", "stateCode": "OK", "state": "Oklahoma", "county": "Tulsa", "metro": "Tulsa", "population": 39327, "geo": {"lat": 36.2695, "lon": -95.8547, "tz": "America/Chicago"}},
  {"name": "Shawnee", "stateCode": "OK", "state": "Oklahoma", "county": "Pottawatomie", "metro": "Oklahoma City", "population": 31512, "geo": {"lat": 35.3273, "lon": -96.9253, "tz": "America/Chicago"}},
  {"name": "Ponca City", "stateCode": "OK", "state": "Oklahoma", "county": "Kay", "metro": "Ponca City", "population": 23858, "geo": {"lat": 36.7070, "lon": -97.0856, "tz": "America/Chicago"}},
  {"name": "Bixby", "stateCode": "OK", "state": "Oklahoma", "county": "Tulsa", "metro": "Tulsa", "population": 28493, "geo": {"lat": 35.9420, "lon": -95.8833, "tz": "America/Chicago"}},
  {"name": "Ardmore", "stateCode": "OK", "state": "Oklahoma", "county": "Carter", "metro": "Ardmore", "population": 24698, "geo": {"lat": 34.1743, "lon": -97.1436, "tz": "America/Chicago"}},
  {"name": "Yukon", "stateCode": "OK", "state": "Oklahoma", "county": "Canadian", "metro": "Oklahoma City", "population": 27364, "geo": {"lat": 35.5067, "lon": -97.7625, "tz": "America/Chicago"}},
  {"name": "Del City", "stateCode": "OK", "state": "Oklahoma", "county": "Oklahoma", "metro": "Oklahoma City", "population": 22037, "geo": {"lat": 35.4420, "lon": -97.4409, "tz": "America/Chicago"}},
  {"name": "Jenks", "stateCode": "OK", "state": "Oklahoma", "county": "Tulsa", "metro": "Tulsa", "population": 24430, "geo": {"lat": 36.0228, "lon": -95.9683, "tz": "America/Chicago"}},
  {"name": "Sapulpa", "stateCode": "OK", "state": "Oklahoma", "county": "Creek", "metro": "Tulsa", "population": 21558, "geo": {"lat": 35.9987, "lon": -96.1142, "tz": "America/Chicago"}},
  {"name": "Durant", "stateCode": "OK", "state": "Oklahoma", "county": "Bryan", "metro": "Durant", "population": 18951, "geo": {"lat": 33.9940, "lon": -96.3708, "tz": "America/Chicago"}},
  {"name": "Sand Springs", "stateCode": "OK", "state": "Oklahoma", "county": "Tulsa", "metro": "Tulsa", "population": 19916, "geo": {"lat": 36.1398, "lon": -96.1089, "tz": "America/Chicago"}},
  {"name": "Altus", "stateCode": "OK", "state": "Oklahoma", "county": "Jackson", "metro": "Altus", "population": 18676, "geo": {"lat": 34.6381, "lon": -99.3340, "tz": "America/Chicago"}},
  {"name": "Bethany", "stateCode": "OK", "state": "Oklahoma", "county": "Oklahoma", "metro": "Oklahoma City", "population": 19939, "geo": {"lat": 35.5187, "lon": -97.6325, "tz": "America/Chicago"}},
  {"name": "Claremore", "stateCode": "OK", "state": "Oklahoma", "county": "Rogers", "metro": "Tulsa", "population": 19604, "geo": {"lat": 36.3126, "lon": -95.6161, "tz": "America/Chicago"}},
  {"name": "Duncan", "stateCode": "OK", "state": "Oklahoma", "county": "Stephens", "metro": "Duncan", "population": 22576, "geo": {"lat": 34.5023, "lon": -97.9578, "tz": "America/Chicago"}},
  {"name": "Mustang", "stateCode": "OK", "state": "Oklahoma", "county": "Canadian", "metro": "Oklahoma City", "population": 22228, "geo": {"lat": 35.3845, "lon": -97.7245, "tz": "America/Chicago"}},
  {"name": "El Reno", "stateCode": "OK", "state": "Oklahoma", "county": "Canadian", "metro": "Oklahoma City", "population": 19813, "geo": {"lat": 35.5323, "lon": -97.9550, "tz": "America/Chicago"}},
  {"name": "McAlester", "stateCode": "OK", "state": "Oklahoma", "county": "Pittsburg", "metro": "McAlester", "population": 17821, "geo": {"lat": 34.9334, "lon": -95.7697, "tz": "America/Chicago"}},
  {"name": "Ada", "stateCode": "OK", "state": "Oklahoma", "county": "Pontotoc", "metro": "Ada", "population": 17399, "geo": {"lat": 34.7745, "lon": -96.6783, "tz": "America/Chicago"}},
  {"name": "Tahlequah", "stateCode": "OK", "state": "Oklahoma", "county": "Cherokee", "metro": "Tahlequah", "population": 17188, "geo": {"lat": 35.9153, "lon": -94.9700, "tz": "America/Chicago"}},
  {"name": "Glenpool", "stateCode": "OK", "state": "Oklahoma", "county": "Tulsa", "metro": "Tulsa", "population": 14756, "geo": {"lat": 35.9553, "lon": -96.0056, "tz": "America/Chicago"}},
  {"name": "Chickasha", "stateCode": "OK", "state": "Oklahoma", "county": "Grady", "metro": "Oklahoma City", "population": 16197, "geo": {"lat": 35.0528, "lon": -97.9364, "tz": "America/Chicago"}},
  {"name": "Miami", "stateCode": "OK", "state": "Oklahoma", "county": "Ottawa", "metro": "Miami", "population": 13087, "geo": {"lat": 36.8745, "lon": -94.8775, "tz": "America/Chicago"}},
  {"name": "Guthrie", "stateCode": "OK", "state": "Oklahoma", "county": "Logan", "metro": "Oklahoma City", "population": 11693, "geo": {"lat": 35.8789, "lon": -97.4253, "tz": "America/Chicago"}},
  {"name": "Choctaw", "stateCode": "OK", "state": "Oklahoma", "county": "Oklahoma", "metro": "Oklahoma City", "population": 12662, "geo": {"lat": 35.4973, "lon": -97.2692, "tz": "America/Chicago"}},
  {"name": "Warr Acres", "stateCode": "OK", "state": "Oklahoma", "county": "Oklahoma", "metro": "Oklahoma City", "population": 10043, "geo": {"lat": 35.5223, "lon": -97.6192, "tz": "America/Chicago"}},
  {"name": "Weatherford", "stateCode": "OK", "state": "Oklahoma", "county": "Custer", "metro": "Weatherford", "population": 12749, "geo": {"lat": 35.5262, "lon": -98.7073, "tz": "America/Chicago"}},
  {"name": "Collinsville", "stateCode": "OK", "state": "Oklahoma", "county": "Tulsa", "metro": "Tulsa", "population": 7331, "geo": {"lat": 36.3645, "lon": -95.8389, "tz": "America/Chicago"}},
  {"name": "Okmulgee", "stateCode": "OK", "state": "Oklahoma", "county": "Okmulgee", "metro": "Tulsa", "population": 11567, "geo": {"lat": 35.6234, "lon": -95.9606, "tz": "America/Chicago"}},
  {"name": "Grove", "stateCode": "OK", "state": "Oklahoma", "county": "Delaware", "metro": "Grove", "population": 7115, "geo": {"lat": 36.5934, "lon": -94.7692, "tz": "America/Chicago"}},
  {"name": "Blanchard", "stateCode": "OK", "state": "Oklahoma", "county": "McClain", "metro": "Oklahoma City", "population": 10203, "geo": {"lat": 35.1378, "lon": -97.6567, "tz": "America/Chicago"}},
  {"name": "Skiatook", "stateCode": "OK", "state": "Oklahoma", "county": "Tulsa", "metro": "Tulsa", "population": 8406, "geo": {"lat": 36.3684, "lon": -96.0014, "tz": "America/Chicago"}},
  {"name": "Noble", "stateCode": "OK", "state": "Oklahoma", "county": "Cleveland", "metro": "Oklahoma City", "population": 7266, "geo": {"lat": 35.1395, "lon": -97.3939, "tz": "America/Chicago"}},
  {"name": "Coweta", "stateCode": "OK", "state": "Oklahoma", "county": "Wagoner", "metro": "Tulsa", "population": 10161, "geo": {"lat": 35.9584, "lon": -95.6514, "tz": "America/Chicago"}},
  {"name": "Wagoner", "stateCode": "OK", "state": "Oklahoma", "county": "Wagoner", "metro": "Tulsa", "population": 9264, "geo": {"lat": 35.9595, "lon": -95.3692, "tz": "America/Chicago"}},
  {"name": "Pryor Creek", "stateCode": "OK", "state": "Oklahoma", "county": "Mayes", "metro": "Tulsa", "population": 9554, "geo": {"lat": 36.3084, "lon": -95.3169, "tz": "America/Chicago"}},
  {"name": "Woodward", "stateCode": "OK", "state": "Oklahoma", "county": "Woodward", "metro": "Woodward", "population": 12121, "geo": {"lat": 36.4334, "lon": -99.3906, "tz": "America/Chicago"}},
  {"name": "Seminole", "stateCode": "OK", "state": "Oklahoma", "county": "Seminole", "metro": "Seminole", "population": 6876, "geo": {"lat": 35.2245, "lon": -96.6706, "tz": "America/Chicago"}},
  {"name": "Newcastle", "stateCode": "OK", "state": "Oklahoma", "county": "McClain", "metro": "Oklahoma City", "population": 12121, "geo": {"lat": 35.2473, "lon": -97.5953, "tz": "America/Chicago"}},
  {"name": "Purcell", "stateCode": "OK", "state": "Oklahoma", "county": "McClain", "metro": "Oklahoma City", "population": 6681, "geo": {"lat": 34.9834, "lon": -97.3614, "tz": "America/Chicago"}},
  {"name": "Cushing", "stateCode": "OK", "state": "Oklahoma", "county": "Payne", "metro": "Stillwater", "population": 7638, "geo": {"lat": 35.9851, "lon": -96.7669, "tz": "America/Chicago"}},
  {"name": "Piedmont", "stateCode": "OK", "state": "Oklahoma", "county": "Canadian", "metro": "Oklahoma City", "population": 8081, "geo": {"lat": 35.6420, "lon": -97.7489, "tz": "America/Chicago"}},
  {"name": "Catoosa", "stateCode": "OK", "state": "Oklahoma", "county": "Rogers", "metro": "Tulsa", "population": 7635, "geo": {"lat": 36.1898, "lon": -95.7458, "tz": "America/Chicago"}},
  {"name": "Vinita", "stateCode": "OK", "state": "Oklahoma", "county": "Craig", "metro": "Vinita", "population": 5374, "geo": {"lat": 36.6387, "lon": -95.1542, "tz": "America/Chicago"}},
  {"name": "Poteau", "stateCode": "OK", "state": "Oklahoma", "county": "Le Flore", "metro": "Poteau", "population": 8685, "geo": {"lat": 35.0537, "lon": -94.6236, "tz": "America/Chicago"}},
  {"name": "Sallisaw", "stateCode": "OK", "state": "Oklahoma", "county": "Sequoyah", "metro": "Fort Smith (AR)", "population": 8483, "geo": {"lat": 35.4601, "lon": -94.7872, "tz": "America/Chicago"}},
  {"name": "Broken Bow", "stateCode": "OK", "state": "Oklahoma", "county": "McCurtain", "metro": "Broken Bow", "population": 4117, "geo": {"lat": 34.0295, "lon": -94.7391, "tz": "America/Chicago"}},
  {"name": "Elk City", "stateCode": "OK", "state": "Oklahoma", "county": "Beckham", "metro": "Elk City", "population": 11687, "geo": {"lat": 35.4120, "lon": -99.4042, "tz": "America/Chicago"}},
  {"name": "Henryetta", "stateCode": "OK", "state": "Oklahoma", "county": "Okmulgee", "metro": "Tulsa", "population": 5781, "geo": {"lat": 35.4395, "lon": -95.9817, "tz": "America/Chicago"}},
  {"name": "Tuttle", "stateCode": "OK", "state": "Oklahoma", "county": "Grady", "metro": "Oklahoma City", "population": 7553, "geo": {"lat": 35.2906, "lon": -97.8125, "tz": "America/Chicago"}},
  {"name": "Pauls Valley", "stateCode": "OK", "state": "Oklahoma", "county": "Garvin", "metro": "Pauls Valley", "population": 6016, "geo": {"lat": 34.7401, "lon": -97.2225, "tz": "America/Chicago"}},
  {"name": "Clinton", "stateCode": "OK", "state": "Oklahoma", "county": "Custer", "metro": "Weatherford", "population": 9033, "geo": {"lat": 35.5156, "lon": -98.9673, "tz": "America/Chicago"}},
  {"name": "Hugo", "stateCode": "OK", "state": "Oklahoma", "county": "Choctaw", "metro": "Hugo", "population": 5037, "geo": {"lat": 34.0101, "lon": -95.5097, "tz": "America/Chicago"}},
  {"name": "Idabel", "stateCode": "OK", "state": "Oklahoma", "county": "McCurtain", "metro": "Broken Bow", "population": 6802, "geo": {"lat": 33.8957, "lon": -94.8266, "tz": "America/Chicago"}},
  {"name": "Stilwell", "stateCode": "OK", "state": "Oklahoma", "county": "Adair", "metro": "Tahlequah", "population": 4139, "geo": {"lat": 35.8145, "lon": -94.6286, "tz": "America/Chicago"}},
  {"name": "Blackwell", "stateCode": "OK", "state": "Oklahoma", "county": "Kay", "metro": "Ponca City", "population": 6603, "geo": {"lat": 36.8048, "lon": -97.2831, "tz": "America/Chicago"}},
  {"name": "Tecumseh", "stateCode": "OK", "state": "Oklahoma", "county": "Pottawatomie", "metro": "Oklahoma City", "population": 7074, "geo": {"lat": 35.2573, "lon": -96.9367, "tz": "America/Chicago"}},
  {"name": "Jay", "stateCode": "OK", "state": "Oklahoma", "county": "Delaware", "metro": "Grove", "population": 2487, "geo": {"lat": 36.4212, "lon": -94.7936, "tz": "America/Chicago"}},
  {"name": "Guymon", "stateCode": "OK", "state": "Oklahoma", "county": "Texas", "metro": "Guymon", "population": 12459, "geo": {"lat": 36.6828, "lon": -101.4816, "tz": "America/Chicago"}},
  {"name": "Holdenville", "stateCode": "OK", "state": "Oklahoma", "county": "Hughes", "metro": "Holdenville", "population": 5584, "geo": {"lat": 35.0806, "lon": -96.3992, "tz": "America/Chicago"}},
  {"name": "Atoka", "stateCode": "OK", "state": "Oklahoma", "county": "Atoka", "metro": "Atoka", "population": 2879, "geo": {"lat": 34.3859, "lon": -96.1286, "tz": "America/Chicago"}},
  {"name": "Sulphur", "stateCode": "OK", "state": "Oklahoma", "county": "Murray", "metro": "Sulphur", "population": 5108, "geo": {"lat": 34.5079, "lon": -96.9686, "tz": "America/Chicago"}},
  {"name": "Harrah", "stateCode": "OK", "state": "Oklahoma", "county": "Oklahoma", "metro": "Oklahoma City", "population": 6717, "geo": {"lat": 35.4895, "lon": -97.1639, "tz": "America/Chicago"}}
]
